{
  "type": "FeatureCollection",
  "features": [
    {
      "type": "Feature",
      "properties": {
        "id": "ak16994521",
        "title": "Kerk a",
        "link": "https://www.google.com"
      },
      "geometry": {
        "type": "Point",
        "coordinates": [-77.038659, 38.931567]
      }
    },
    {
      "type": "Feature",
      "properties": {
        "id": "ak16994519",
        "title": "Kerk b",
        "link": "https://www.google.com"
      },
      "geometry": {
        "type": "Point",
        "coordinates": [-77.003168, 38.894651]
      }
    },
    {
      "type": "Feature",
      "properties": {
        "id": "ak16994517",
        "title": "Kerk c",
        "link": "https://www.google.com"
      },
      "geometry": {
        "type": "Point",
        "coordinates": [-77.090372, 38.881189]
      }
    },
    {
      "type": "Feature",
      "properties": {
        "id": "ci38021336",
        "title": "Kerk d",
        "link": "https://www.google.com"
      },
      "geometry": {
        "type": "Point",
        "coordinates": [-77.111561, 38.882342]
      }
    },
    {
      "type": "Feature",
      "properties": {
        "id": "us2000b2nn",
        "title": "Kerk e",
        "link": "https://www.google.com"
      },
      "geometry": {
        "type": "Point",
        "coordinates": [-77.052477, 38.943951]
      }
    },
    {
      "type": "Feature",
      "properties": {
        "id": "ak16994510",
        "title": "Kerk f",
        "link": "https://www.google.com"
      },
      "geometry": {
        "type": "Point",
        "coordinates": [-77.043444, 38.909664]
      }
    },
    {
      "type": "Feature",
      "properties": {
        "id": "us2000b2nb",
        "title": "Kerk g",
        "link": "https://www.google.com"
      },
      "geometry": {
        "type": "Point",
        "coordinates": [-77.031706, 38.914581]
      }
    },
    {
      "type": "Feature",
      "properties": {
        "id": "nc72905861",
        "title": "Kerk h",
        "link": "https://www.google.com"
      },
      "geometry": {
        "type": "Point",
        "coordinates": [-77.020945, 38.878241]
      }
    },
    {
      "type": "Feature",
      "properties": {
        "id": "2343fassd",
        "title": "De Zaaier",
        "link": "https://www.cgkdezaaier.nl/"
      },
      "geometry": {
        "type": "Point",
        "coordinates": [5.62520499, 52.34936894]
      }
    },
    {
      "type": "Feature",
      "properties": {
        "id": "fdasafds32ewf",
        "title": "De Grote Kerk",
        "link": "https://grotekerk.hervormdharderwijk.nl/"
      },
      "geometry": {
        "type": "Point",
        "coordinates": [5.61656166, 52.34895305]
      }
    },
    {
      "type": "Feature",
      "properties": {
        "id": "qwer32frew",
        "title": "De Kerk",
        "link": "https://grotekerk.hervormdharderwijk.nl/"
      },
      "geometry": {
        "type": "Point",
        "coordinates": [5.61770707, 52.34605109]
      }
    }
  ]
}